[
    {
        "id":  "1",
        "customerName": "Eastern Treatment Plant",
        "Product": "LOX",
        "address": "Alan Bird Dr, Bangholme  3175",
        "longi": 145.174189,
        "lati": -38.066191,
        "tel": "xxxxxx888",
        "email": "info@boc.com",
        "type": "comp_cust"
    },
{
        "id":  "2",
"customerName": "Coliban Water Treatment Facility",
"Product" : "LOX"	,
"address": "Burnside Rd, Epsom 3551",
"longi": 144.293925,
"lati": -36.701026,
"tel": "xxxxxx888",
"email": "info@boc.com",
"type": "comp_cust"},
{
        "id":  "3",
"customerName": "Toyoya Motor Corporation",
"Product" : "LOX"	,
"address": "155 Bertie St, Port Melbourne  3207",
"longi": 144.934729,
"lati": 37.826727,
"tel": "xxxxxx888",
"email": "info@boc.com",
"type": "comp_cust"},
{
        "id":  "4",
"customerName": "BAE Systems",
"Product" : "LOX"	,
"address": "Nelson Pl, Williamstown 3016",
"longi": 144.905413,
"lati": 37.863405,
"tel": "xxxxxx888",
"email": "info@boc.com",
"type": "comp_cust"},
{
        "id":  "5",
"customerName": "Hilton Food Group",
"Product" : "LOX"	,
"address": "441 Doherty Road, Truganina 3029",
"longi": 144.758738,
"lati": 37.825998,
"tel": "xxxxxx888",
"email": "info@boc.com",
"type": "comp_cust"},
{
        "id":  "16",
"customerName": "Lyondellbasell",
"Product" : "LIN"	,
"address": "Refinery Road Corio 3124",
"longi": 144.373943,
"lati": 38.075997,
"tel": "xxxxxx888",
"email": "info@boc.com",
"type": "comp_cust"},
{
        "id":  "17",
"customerName": "General Mills Australia",
"Product" : "LIN"	,
"address": "4 Ricketts Rd, Mount Waverley 3149",
"longi": 145.131757,
"lati": 37.894723,
"tel": "xxxxxx888",
"email": "info@boc.com",
"type": "comp_cust"},
{
        "id":  "18",
"customerName": "Heidelberg General Engineering",
"Product" : "LIN"	,
"address": "25/27 Commercial Dr, Thomastown 3074",
"longi": 145.041447,
"lati": 37.692388,
"tel": "xxxxxx888",
"email": "info@boc.com",
"type": "comp_cust"},
{
        "id":  "19",
"customerName": "WIGLEY ENGINEERING",
"Product" : "LIN"	,
"address": "16 Zenith Rd, Dandenong South 3175",
"longi": 145.221993,
"lati": 38.020359,
"tel": "xxxxxx888",
"email": "info@boc.com",
"type": "comp_cust"},
{
        "id":  "20",
"customerName": "PRONTO E FRESCO",
"Product" : "LIN"	,
"address": "91-93 Riggall Street, Broadmeadows 3047",
"longi": 144.925793,
"lati": 37.676994,
"tel": "xxxxxx888",
"email": "info@boc.com",
"type": "comp_cust"},
{
        "id":  "21",
"customerName": "METALSA",
"Product" : "LAR"	,
"address": "5 Elma Road Cheltenham, 319",
"longi": 145.072374,
"lati": 37.951739,
"tel": "xxxxxx888",
"email": "info@boc.com",
"type": "comp_cust"},
{
        "id":  "22",
"customerName": "BAR CRUSHER",
"Product" : "LAR"	,
"address": "5 Quality Dr, Dandenong South 3175",
"longi": 145.210056,
"lati": 38.026433,
"tel": "xxxxxx888",
"email": "info@boc.com",
"type": "comp_cust"},
{
        "id":  "23",
"customerName": "Krueger Transport",
"Product" : "LAR"	,
"address": "391 boundary Road, Truganina 3029",
"longi": 144.762072,
"lati": 37.811856,
"tel": "xxxxxx888",
"email": "info@boc.com",
"type": "comp_cust"},
{
        "id":  "24",
"customerName": "Olex Cable",
"Product" : "LAR"	,
"address": "207 Sunshine Rd., Tottenham 3012",
"longi": 144.855411,
"lati": 37.798957,
"tel": "xxxxxx888",
"email": "info@boc.com",
"type": "comp_cust"},
{
        "id":  "25",
"customerName": "BARKER TRAILERS PTY LTD",
"Product" : "LAR"	,
"address": "144 Clancys Ln, Woodend 3442",
"longi": 144.540327,
"lati": 37.32357,
"tel": "xxxxxx888",
"email": "info@boc.com",
"type": "comp_cust"},
{
        "id":  "26",
"customerName": "DIAMOND VALLEY PORK",
"Product" : "LCO2"	,
"address": "13-15 Thomas Rd, Laverton North 3026",
"longi": 144.80547,
"lati": 37.820945,
"tel": "xxxxxx888",
"email": "info@boc.com",
"type": "comp_cust"},
{
        "id":  "27",
"customerName": "FARM FOODS RETAIL SERVICES",
"Product" : "LCO2"	,
"address": "60 Leather Street, Breakwater 3219",
"longi": 144.378556,
"lati": 38.186265,
"tel": "xxxxxx888",
"email": "info@boc.com",
"type": "comp_cust"},
{
        "id":  "28",
"customerName": "Aquanation",
"Product" : "LCO2"	,
"address": "Reilly St & Greenwood Ave, Ringwood 3134",
"longi": 145.230338,
"lati": 37.826374,
"tel": "xxxxxx888",
"email": "info@boc.com",
"type": "comp_cust"},
{
        "id":  "29",
"customerName": "BELGRAVIA LEISURE - WATERMARC",
"Product" : "LCO2"	,
"address": "1 Flintoff St, Greensborough 3088",
"longi": 145.105032,
"lati": 37.704182,
"tel": "xxxxxx888",
"email": "info@boc.com",
"type": "comp_cust"},
{
        "id":  "30",
"customerName": "LONGWARRY FOOD PARK",
"Product" : "LCO2"	,
"address": "31-41 Mackay St, Longwarry 3816",
"longi": 145.773349,
"lati": 38.112365,
"tel": "xxxxxx888",
"email": "info@boc.com",
"type": "comp_cust"}

]