[{
"id":"S36",
"customerName": "AIR LIQUIDE AUSTRALIA - ALTONA",
"customerNo": "99999944",
"address": "631 KORORIT CREEK ROAD,ALTONA",
"longi": 144.792687,
"lati": -37.845276,
"tel": "",
"email": "info@airliquide.com",
"capacity":"99999.00(M3)",
"totalPickups":  461,
"totalVolumePickedUp":  6165687.00,
"lastPickupDate": "08 Sep 2016 06:20:00:000",
"product":"LOX",
"type": "source"},

{
"id":"S46",
"customerName": "ALA VIC SUNSHINE 50TN V2 DI PLANT",
"customerNo": "00001309",
"address": "40 BUNNETT STREET,NORTH SUNSHINE",
"longi": 144.840800,
"lati": -37.762700,
"tel": "9290 1100",
"email": "info@airliquide.com",
"capacity":"99999.00(KG)",
"totalPickups":  231,
"totalVolumePickedUp":  1118675.00,
"lastPickupDate": "07 Sep 2016 18:36:00:000",
"product":"LCO2",
"type": "source"},

{
"id":"S48",
"customerName": "AIR LIQUIDE AUSTRALIA - ALTONA",
"customerNo": "99999943",
"address": "631 KOROROIT CREEK ROAD,ALTONA",
"longi": 144.792700,
"lati": -37.845300,
"tel": "",
"email": "info@airliquide.com",
"capacity":"99999.00(M3)",
"totalPickups":  92,
"totalVolumePickedUp":  726699.00,
"lastPickupDate": "07 Sep 2016 18:43:00:000",
"product":"LAR",
"type": "source"},

{
"id":"S55",
"customerName": "ALA VIC SUNSHINE 50TN V1 DI PLANT",
"customerNo": "00001308",
"address": "40 BUNNETT STREET,NORTH SUNSHINE",
"longi": 144.840800,
"lati": -37.762700,
"tel": "9290 1100",
"email": "info@airliquide.com",
"capacity":"99999.00(KG)",
"totalPickups":  2,
"totalVolumePickedUp":  24193.00,
"lastPickupDate": "24 Aug 2016 04:21:00:000",
"product":"LCO2",
"type": "source"},

{
"id":"S57",
"customerName": "FULL LCO2 - HOLBROOK/TARCUTTA",
"customerNo": "99999941",
"address": "CHANGEOVER,TARCUTTA",
"longi": 147.304554,
"lati": -35.737367,
"tel": "",
"email": "info@airliquide.com",
"capacity":"99999.00(KG)",
"totalPickups":  4,
"totalVolumePickedUp":  84060.00,
"lastPickupDate": "11 Mar 2016 11:00:00:000",
"product":"LCO2",
"type": "source"},

{
"id":"S58",
"customerName": "ALA VIC ALTONA ASU",
"customerNo": "99999945",
"address": "631 KOROROIT CREEK ROAD,ALTONA",
"longi": 144.792700,
"lati": -37.845300,
"tel": "",
"email": "info@airliquide.com",
"capacity":"99999.00(M3)",
"totalPickups":  824,
"totalVolumePickedUp":  13257614.00,
"lastPickupDate": "08 Sep 2016 03:25:00:000",
"product":"LIN",
"type": "source"},

{
"id":"S59",
"customerName": "AIR LIQUIDE AUSTRALIA - LANG LANG (S01)",
"customerNo": "99999953",
"address": "5570 SOUTH GIPPSLAND HWY,LANG LANG",
"longi": 145.614760,
"lati": -38.334134,
"tel": "",
"email": "info@airliquide.com",
"capacity":"99999.00(KG)",
"totalPickups":  542,
"totalVolumePickedUp":  10249117.00,
"lastPickupDate": "08 Sep 2016 10:20:00:000",
"product":"LCO2",
"type": "source"},

{
"id":"S198",
"customerName": "FULL LCO2 - HOLBROOK/TARCUTTA",
"customerNo": "99999941",
"address": "CHANGEOVER,TARCUTTA",
"longi": 147.304554,
"lati": -35.737367,
"tel": "",
"email": "info@airliquide.com",
"capacity":"99999.00(KG)",
"totalPickups":  4,
"totalVolumePickedUp":  84060.00,
"lastPickupDate": "11 Mar 2016 11:00:00:000",
"product":"LCO2",
"type": "source"},

{
"id":"S169",
"customerName": "EMPTY LCO2 - HOLBROOK/TARCUTTA",
"customerNo": "99999967",
"address": "CHANGEOVER,TARCUTTA",
"longi": 147.715300,
"lati": -35.288500,
"tel": "",
"email": "info@airliquide.com",
"capacity":"99990.00(KG)",
"totalPickups":  15,
"totalVolumePickedUp":  15.00,
"lastPickupDate": "18 Apr 2016 10:29:00:000",
"product":"LCO2",
"type": "source"},

{
"id":"S194",
"customerName": "ALWA - LAR EX WA",
"customerNo": "99999977",
"address": "LAR PICK UP,WA",
"longi": 147.735000,
"lati": -35.278400,
"tel": "",
"email": "info@airliquide.com",
"capacity":"100000.00(M3)",
"totalPickups":  1,
"totalVolumePickedUp":  1.00,
"lastPickupDate": "02 May 2016 09:45:00:000",
"product":"LIN",
"type": "source"},

{
"id":"S197",
"customerName": "ALWA - LAR PICK UP",
"customerNo": "99999978",
"address": "WA,PERTH",
"longi": 0.000000,
"lati": 0.000000,
"tel": "255 2288",
"email": "info@airliquide.com",
"capacity":"10000.00(M3)",
"totalPickups":  7,
"totalVolumePickedUp":  51182.00,
"lastPickupDate": "30 Aug 2016 17:50:00:000",
"product":"LAR",
"type": "source"}]
